[{"Id":1813,"PublicText":"","Name":"S.A. Museum of Art","Address":{"Street":"200 W. Jones Ave.","City":"San Antonio","State":"TX","ZipCode":"78215","Country":"United States","Html":"200 W. Jones Ave.<br />San Antonio, TX 78215"},"Location":{"Latitude":29.43701,"Longitude":-98.48236},"BikesAvailable":5,"DocksAvailable":8,"TotalDocks":15,"HoursOfOperation":"00:02 - 23:58","TimeZone":"(UTC-06:00) Central Time (US & Canada)","Status":"Active","IsEventBased":false},{"Id":1815,"PublicText":"","Name":"S.A. Central Library","Address":{"Street":"Augusta @ Navarro St.","City":"San Antonio","State":"TX","ZipCode":"78205","Country":"United States","Html":"Augusta @ Navarro St.<br />San Antonio, TX 78205"},"Location":{"Latitude":29.43244,"Longitude":-98.49236},"BikesAvailable":9,"DocksAvailable":4,"TotalDocks":15,"HoursOfOperation":"00:02 - 23:58","TimeZone":"(UTC-06:00) Central Time (US & Canada)","Status":"Active","IsEventBased":false},{"Id":1816,"PublicText":"","Name":"Milam Park","Address":{"Street":"W. Houston St. @ Santa Rosa","City":"San Antonio","State":"TX","ZipCode":"78207","Country":"United States","Html":"W. Houston St. @ Santa Rosa<br />San Antonio, TX 78207"},"Location":{"Latitude":29.42630,"Longitude":-98.49825},"BikesAvailable":1,"DocksAvailable":5,"TotalDocks":7,"HoursOfOperation":"00:02 - 23:58","TimeZone":"(UTC-06:00) Central Time (US & Canada)","Status":"Active","IsEventBased":false},{"Id":1817,"PublicText":"","Name":"Main Plaza","Address":{"Street":"Main Plaza @ S. Flores St.","City":"San Antonio","State":"TX","ZipCode":"78705","Country":"United States","Html":"Main Plaza @ S. Flores St.<br />San Antonio, TX 78705"},"Location":{"Latitude":29.42479,"Longitude":-98.49442},"BikesAvailable":7,"DocksAvailable":4,"TotalDocks":11,"HoursOfOperation":"00:02 - 23:58","TimeZone":"(UTC-06:00) Central Time (US & Canada)","Status":"Active","IsEventBased":false},{"Id":1818,"PublicText":"","Name":"Market Square","Address":{"Street":"Dolorosa St. @ Market Sq.","City":"San Antonio","State":"TX","ZipCode":"78207","Country":"United States","Html":"Dolorosa St. @ Market Sq.<br />San Antonio, TX 78207"},"Location":{"Latitude":29.42459,"Longitude":-98.49947},"BikesAvailable":4,"DocksAvailable":10,"TotalDocks":15,"HoursOfOperation":"00:02 - 23:58","TimeZone":"(UTC-06:00) Central Time (US & Canada)","Status":"Unavailable","IsEventBased":false},{"Id":1819,"PublicText":"","Name":"La Villita","Address":{"Street":"S. Alamo @ Nueva St.","City":"San Antonio","State":"TX","ZipCode":"78205-2926","Country":"United States","Html":"S. Alamo @ Nueva St.<br />San Antonio, TX 78205-2926"},"Location":{"Latitude":29.42078,"Longitude":-98.48818},"BikesAvailable":4,"DocksAvailable":9,"TotalDocks":13,"HoursOfOperation":"00:02 - 23:58","TimeZone":"(UTC-06:00) Central Time (US & Canada)","Status":"Active","IsEventBased":false},{"Id":1820,"PublicText":"","Name":"Alamo Plaza","Address":{"Street":"E. Houston at Alamo St.","City":"San Antonio","State":"TX","ZipCode":"78705","Country":"United States","Html":"E. Houston at Alamo St.<br />San Antonio, TX 78705"},"Location":{"Latitude":29.42650,"Longitude":-98.48703},"BikesAvailable":6,"DocksAvailable":1,"TotalDocks":7,"HoursOfOperation":"00:02 - 23:58","TimeZone":"(UTC-06:00) Central Time (US & Canada)","Status":"Active","IsEventBased":false},{"Id":1821,"PublicText":"","Name":"Ellis Alley ","Address":{"Street":"219 Chestnut St.","City":"San Antonio","State":"TX","ZipCode":"78202","Country":"United States","Html":"219 Chestnut St.<br />San Antonio, TX 78202"},"Location":{"Latitude":29.42277,"Longitude":-98.48011},"BikesAvailable":5,"DocksAvailable":12,"TotalDocks":17,"HoursOfOperation":"00:02 - 23:58","TimeZone":"(UTC-06:00) Central Time (US & Canada)","Status":"Active","IsEventBased":false},{"Id":1822,"PublicText":"","Name":"S.A. Convention Ctr.","Address":{"Street":"200 E. Market St.","City":"San Antonio","State":"TX","ZipCode":"78205","Country":"United States","Html":"200 E. Market St.<br />San Antonio, TX 78205"},"Location":{"Latitude":29.42252,"Longitude":-98.48671},"BikesAvailable":5,"DocksAvailable":5,"TotalDocks":11,"HoursOfOperation":"00:02 - 23:58","TimeZone":"(UTC-06:00) Central Time (US & Canada)","Status":"Active","IsEventBased":false},{"Id":1823,"PublicText":"","Name":"Hemisfair Park","Address":{"Street":"600 E.Commerce","City":"San Antonio","State":"TX","ZipCode":"78205","Country":"United States","Html":"600 E.Commerce<br />San Antonio, TX 78205"},"Location":{"Latitude":29.41942,"Longitude":-98.48487},"BikesAvailable":6,"DocksAvailable":16,"TotalDocks":23,"HoursOfOperation":"00:02 - 23:58","TimeZone":"(UTC-06:00) Central Time (US & Canada)","Status":"Unavailable","IsEventBased":false},{"Id":1824,"PublicText":"","Name":"MPO","Address":{"Street":"825 S. St. Mary's St.","City":"San Antonio","State":"TX","ZipCode":"78205","Country":"United States","Html":"825 S. St. Mary's St.<br />San Antonio, TX 78205"},"Location":{"Latitude":29.41595,"Longitude":-98.48974},"BikesAvailable":1,"DocksAvailable":6,"TotalDocks":7,"HoursOfOperation":"00:02 - 23:58","TimeZone":"(UTC-06:00) Central Time (US & Canada)","Status":"Active","IsEventBased":false},{"Id":1825,"PublicText":"","Name":"Blue Star","Address":{"Street":"1414 S. Alamo St.","City":"San Antonio","State":"TX","ZipCode":"78210","Country":"United States","Html":"1414 S. Alamo St.<br />San Antonio, TX 78210"},"Location":{"Latitude":29.40947,"Longitude":-98.49500},"BikesAvailable":8,"DocksAvailable":7,"TotalDocks":15,"HoursOfOperation":"00:02 - 23:58","TimeZone":"(UTC-06:00) Central Time (US & Canada)","Status":"Active","IsEventBased":false},{"Id":1827,"PublicText":"Test","Name":"Central Hub","Address":{"Street":"S. Alamo @ Cesar Chavez","City":"San Antonio","State":"TX","ZipCode":"78705","Country":"United States","Html":"S. Alamo @ Cesar Chavez<br />San Antonio, TX 78705"},"Location":{"Latitude":29.41871,"Longitude":-98.48801},"BikesAvailable":2,"DocksAvailable":5,"TotalDocks":7,"HoursOfOperation":"00:02 - 23:58","TimeZone":"(UTC-06:00) Central Time (US & Canada)","Status":"Active","IsEventBased":false},{"Id":1849,"PublicText":"","Name":"Pearl Brewery","Address":{"Street":"200 East Grayson St.","City":"San Antonio","State":"TX","ZipCode":"78215","Country":"United States","Html":"200 East Grayson St.<br />San Antonio, TX 78215"},"Location":{"Latitude":29.44356,"Longitude":-98.47946},"BikesAvailable":12,"DocksAvailable":5,"TotalDocks":18,"HoursOfOperation":"00:02 - 23:58","TimeZone":"(UTC-06:00) Central Time (US & Canada)","Status":"Active","IsEventBased":false},{"Id":1958,"PublicText":"","Name":"Bexar County Garage","Address":{"Street":"S. Flores @ Nueva","City":"San Antonio","State":"TX","ZipCode":"78204","Country":"United States","Html":"S. Flores @ Nueva<br />San Antonio, TX 78204"},"Location":{"Latitude":29.42266,"Longitude":-98.49544},"BikesAvailable":7,"DocksAvailable":7,"TotalDocks":14,"HoursOfOperation":"00:02 - 23:58","TimeZone":"(UTC-06:00) Central Time (US & Canada)","Status":"Active","IsEventBased":false},{"Id":1959,"PublicText":"","Name":"Hotel Havana","Address":{"Street":"1015 Navarro St.","City":"San Antonio","State":"TX","ZipCode":"78205","Country":"United States","Html":"1015 Navarro St.<br />San Antonio, TX 78205"},"Location":{"Latitude":29.43084,"Longitude":-98.48969},"BikesAvailable":2,"DocksAvailable":5,"TotalDocks":7,"HoursOfOperation":"00:02 - 23:58","TimeZone":"(UTC-06:00) Central Time (US & Canada)","Status":"Active","IsEventBased":false},{"Id":1960,"PublicText":"","Name":"Liberty Bar","Address":{"Street":"1111 S. Alamo St.","City":"San Antonio","State":"TX","ZipCode":"78210","Country":"United States","Html":"1111 S. Alamo St.<br />San Antonio, TX 78210"},"Location":{"Latitude":29.41234,"Longitude":-98.49193},"BikesAvailable":10,"DocksAvailable":8,"TotalDocks":18,"HoursOfOperation":"00:02 - 23:58","TimeZone":"(UTC-06:00) Central Time (US & Canada)","Status":"Active","IsEventBased":false},{"Id":1961,"PublicText":"","Name":"Visitor's Center","Address":{"Street":"317 Alamo Plaza","City":"San Antonio","State":"TX","ZipCode":"78205","Country":"United States","Html":"317 Alamo Plaza<br />San Antonio, TX 78205"},"Location":{"Latitude":29.42581,"Longitude":-98.48732},"BikesAvailable":3,"DocksAvailable":8,"TotalDocks":11,"HoursOfOperation":"00:02 - 23:58","TimeZone":"(UTC-06:00) Central Time (US & Canada)","Status":"Active","IsEventBased":false},{"Id":1963,"PublicText":"","Name":"Pico de Gallo","Address":{"Street":"Buena Vista @ S. Leona St.","City":"San Antonio","State":"TX","ZipCode":"78207","Country":"United States","Html":"Buena Vista @ S. Leona St.<br />San Antonio, TX 78207"},"Location":{"Latitude":29.42501,"Longitude":-98.50285},"BikesAvailable":4,"DocksAvailable":15,"TotalDocks":19,"HoursOfOperation":"00:02 - 23:58","TimeZone":"(UTC-06:00) Central Time (US & Canada)","Status":"Active","IsEventBased":false},{"Id":2000,"PublicText":"","Name":"VIA Super Stop","Address":{"Street":"Cesar Chavez @ S. Presa","City":"San Antonio","State":"TX","ZipCode":"78205","Country":"United States","Html":"Cesar Chavez @ S. Presa<br />San Antonio, TX 78205"},"Location":{"Latitude":29.41825,"Longitude":-98.48970},"BikesAvailable":4,"DocksAvailable":15,"TotalDocks":22,"HoursOfOperation":"00:02 - 23:58","TimeZone":"(UTC-06:00) Central Time (US & Canada)","Status":"Active","IsEventBased":false},{"Id":2058,"PublicText":"","Name":"1221 Broadway","Address":{"Street":"202 Avenue A","City":"San Antonio","State":"TX","ZipCode":"78215","Country":"United States","Html":"202 Avenue A<br />San Antonio, TX 78215"},"Location":{"Latitude":29.43760,"Longitude":-98.48084},"BikesAvailable":4,"DocksAvailable":7,"TotalDocks":11,"HoursOfOperation":"00:02 - 23:58","TimeZone":"(UTC-06:00) Central Time (US & Canada)","Status":"Active","IsEventBased":false},{"Id":2059,"PublicText":"","Name":"Hemisview","Address":{"Street":"212 Labor St.","City":"San Antonio","State":"TX","ZipCode":"78210","Country":"United States","Html":"212 Labor St.<br />San Antonio, TX 78210"},"Location":{"Latitude":29.41535,"Longitude":-98.48385},"BikesAvailable":7,"DocksAvailable":14,"TotalDocks":22,"HoursOfOperation":"00:02 - 23:58","TimeZone":"(UTC-06:00) Central Time (US & Canada)","Status":"Active","IsEventBased":false},{"Id":2060,"PublicText":"","Name":"SAHA","Address":{"Street":"827 S. Main Ave.","City":"San Antonio","State":"TX","ZipCode":"78204","Country":"United States","Html":"827 S. Main Ave.<br />San Antonio, TX 78204"},"Location":{"Latitude":29.41496,"Longitude":-98.49695},"BikesAvailable":15,"DocksAvailable":7,"TotalDocks":22,"HoursOfOperation":"00:02 - 23:58","TimeZone":"(UTC-06:00) Central Time (US & Canada)","Status":"Active","IsEventBased":false},{"Id":2136,"PublicText":"","Name":"Geekdom","Address":{"Street":"Main St. @ E. Pecan St.","City":"San Antonio","State":"TX","ZipCode":"78205","Country":"United States","Html":"Main St. @ E. Pecan St.<br />San Antonio, TX 78205"},"Location":{"Latitude":29.42849,"Longitude":-98.49374},"BikesAvailable":6,"DocksAvailable":12,"TotalDocks":18,"HoursOfOperation":"00:02 - 23:58","TimeZone":"(UTC-06:00) Central Time (US & Canada)","Status":"Active","IsEventBased":false},{"Id":2137,"PublicText":"","Name":"Roosevelt Park","Address":{"Street":"42 Mission Road","City":"San Antonio","State":"TX","ZipCode":"78204","Country":"United States","Html":"42 Mission Road<br />San Antonio, TX 78204"},"Location":{"Latitude":29.40057,"Longitude":-98.48856},"BikesAvailable":6,"DocksAvailable":7,"TotalDocks":13,"HoursOfOperation":"00:02 - 23:58","TimeZone":"(UTC-06:00) Central Time (US & Canada)","Status":"Active","IsEventBased":false},{"Id":2156,"PublicText":"","Name":"Concepcion Park","Address":{"Street":"600 E. Theo Ave.","City":"San Antonio","State":"TX","ZipCode":"78210","Country":"United States","Html":"600 E. Theo Ave.<br />San Antonio, TX 78210"},"Location":{"Latitude":29.38786,"Longitude":-98.49773},"BikesAvailable":11,"DocksAvailable":7,"TotalDocks":18,"HoursOfOperation":"00:02 - 23:58","TimeZone":"(UTC-06:00) Central Time (US & Canada)","Status":"Active","IsEventBased":false},{"Id":2157,"PublicText":"","Name":"Mission Concepcion","Address":{"Street":"807 Mission Rd.","City":"San Antonio","State":"TX","ZipCode":"78210","Country":"United States","Html":"807 Mission Rd.<br />San Antonio, TX 78210"},"Location":{"Latitude":29.39005,"Longitude":-98.49176},"BikesAvailable":1,"DocksAvailable":17,"TotalDocks":18,"HoursOfOperation":"00:02 - 23:58","TimeZone":"(UTC-06:00) Central Time (US & Canada)","Status":"Active","IsEventBased":false},{"Id":2158,"PublicText":"","Name":"Mission Road","Address":{"Street":"Mission Rd. at Mission Pkwy","City":"San Antonio ","State":"TX","ZipCode":"78214","Country":"United States","Html":"Mission Rd. at Mission Pkwy<br />San Antonio , TX 78214"},"Location":{"Latitude":29.37870,"Longitude":-98.48900},"BikesAvailable":4,"DocksAvailable":8,"TotalDocks":12,"HoursOfOperation":"00:02 - 23:58","TimeZone":"(UTC-06:00) Central Time (US & Canada)","Status":"Active","IsEventBased":false},{"Id":2159,"PublicText":"","Name":"VFW Blvd","Address":{"Street":"800 VFW Blvd.","City":"San Antonio","State":"TX","ZipCode":"78214","Country":"United States","Html":"800 VFW Blvd.<br />San Antonio, TX 78214"},"Location":{"Latitude":29.37020,"Longitude":-98.47677},"BikesAvailable":9,"DocksAvailable":5,"TotalDocks":14,"HoursOfOperation":"00:02 - 23:58","TimeZone":"(UTC-06:00) Central Time (US & Canada)","Status":"Active","IsEventBased":false},{"Id":2160,"PublicText":"","Name":"Mission San Jose","Address":{"Street":"6701 San Jose Dr.","City":"San Antonio","State":"TX","ZipCode":"78214","Country":"United States","Html":"6701 San Jose Dr.<br />San Antonio, TX 78214"},"Location":{"Latitude":29.36000,"Longitude":-98.47955},"BikesAvailable":18,"DocksAvailable":4,"TotalDocks":22,"HoursOfOperation":"00:02 - 23:58","TimeZone":"(UTC-06:00) Central Time (US & Canada)","Status":"Active","IsEventBased":false},{"Id":2210,"PublicText":"","Name":"Ace Mart","Address":{"Street":"936 S. Presa St.","City":"San Antonio","State":"TX","ZipCode":"78210","Country":"United States","Html":"936 S. Presa St.<br />San Antonio, TX 78210"},"Location":{"Latitude":29.41094,"Longitude":-98.48728},"BikesAvailable":7,"DocksAvailable":15,"TotalDocks":22,"HoursOfOperation":"00:02 - 23:58","TimeZone":"(UTC-06:00) Central Time (US & Canada)","Status":"Active","IsEventBased":false},{"Id":2211,"PublicText":"","Name":"Sunset Station","Address":{"Street":"487 Hoefgen Ave.","City":"San Antonio","State":"TX","ZipCode":"78205","Country":"United States","Html":"487 Hoefgen Ave.<br />San Antonio, TX 78205"},"Location":{"Latitude":29.41960,"Longitude":-98.47830},"BikesAvailable":8,"DocksAvailable":10,"TotalDocks":18,"HoursOfOperation":"00:02 - 23:58","TimeZone":"(UTC-06:00) Central Time (US & Canada)","Status":"Active","IsEventBased":false},{"Id":2212,"PublicText":"","Name":"SA Zoo","Address":{"Street":"3874 N St. Mary's","City":"San Antonio","State":"TX","ZipCode":"78212","Country":"United States","Html":"3874 N St. Mary's<br />San Antonio, TX 78212"},"Location":{"Latitude":29.46110,"Longitude":-98.47447},"BikesAvailable":8,"DocksAvailable":14,"TotalDocks":22,"HoursOfOperation":"00:02 - 23:58","TimeZone":"(UTC-06:00) Central Time (US & Canada)","Status":"Active","IsEventBased":false},{"Id":2213,"PublicText":"","Name":"YMCA Tripoint","Address":{"Street":"3233 N St. Mary's","City":"San Antonio","State":"TX","ZipCode":"78212","Country":"United States","Html":"3233 N St. Mary's<br />San Antonio, TX 78212"},"Location":{"Latitude":29.45447,"Longitude":-98.48267},"BikesAvailable":12,"DocksAvailable":6,"TotalDocks":18,"HoursOfOperation":"00:02 - 23:58","TimeZone":"(UTC-06:00) Central Time (US & Canada)","Status":"Active","IsEventBased":false},{"Id":2214,"PublicText":"","Name":"Witte @ Parking Garage","Address":{"Street":"3787 N Avenue B","City":"San Antonio","State":"TX","ZipCode":"78209","Country":"United States","Html":"3787 N Avenue B<br />San Antonio, TX 78209"},"Location":{"Latitude":29.46125,"Longitude":-98.46800},"BikesAvailable":7,"DocksAvailable":11,"TotalDocks":18,"HoursOfOperation":"00:02 - 23:58","TimeZone":"(UTC-06:00) Central Time (US & Canada)","Status":"Active","IsEventBased":false},{"Id":2335,"PublicText":"","Name":"Acequia Park","Address":{"Street":"400 Mission Trail","City":"San Antonio","State":"TX","ZipCode":"78214","Country":"United States","Html":"400 Mission Trail<br />San Antonio, TX 78214"},"Location":{"Latitude":29.34693,"Longitude":-98.46288},"BikesAvailable":9,"DocksAvailable":13,"TotalDocks":22,"HoursOfOperation":"00:02 - 23:58","TimeZone":"(UTC-06:00) Central Time (US & Canada)","Status":"Active","IsEventBased":false},{"Id":2337,"PublicText":"","Name":"Padre Park","Address":{"Street":"Mission Trail","City":"San Antonio","State":"TX","ZipCode":"78214","Country":"United States","Html":"Mission Trail<br />San Antonio, TX 78214"},"Location":{"Latitude":29.36252,"Longitude":-98.47051},"BikesAvailable":9,"DocksAvailable":5,"TotalDocks":14,"HoursOfOperation":"00:02 - 23:58","TimeZone":"(UTC-06:00) Central Time (US & Canada)","Status":"Active","IsEventBased":false},{"Id":2338,"PublicText":"","Name":"Espada Dam","Address":{"Street":"397 Mission Trail","City":"San Antonio","State":"TX","ZipCode":"78214","Country":"United States","Html":"397 Mission Trail<br />San Antonio, TX 78214"},"Location":{"Latitude":29.34624,"Longitude":-98.46487},"BikesAvailable":4,"DocksAvailable":9,"TotalDocks":14,"HoursOfOperation":"00:02 - 23:58","TimeZone":"(UTC-06:00) Central Time (US & Canada)","Status":"Active","IsEventBased":false},{"Id":2339,"PublicText":"","Name":"Mission San Juan","Address":{"Street":"9101 Graf Road","City":"San Antonio","State":"TX","ZipCode":"78223","Country":"United States","Html":"9101 Graf Road<br />San Antonio, TX 78223"},"Location":{"Latitude":29.33420,"Longitude":-98.45467},"BikesAvailable":7,"DocksAvailable":15,"TotalDocks":22,"HoursOfOperation":"00:02 - 23:58","TimeZone":"(UTC-06:00) Central Time (US & Canada)","Status":"Active","IsEventBased":false},{"Id":2340,"PublicText":"","Name":"The One Stop","Address":{"Street":"1901 S Alamo","City":"San Antonio","State":"TX","ZipCode":"78204","Country":"United States","Html":"1901 S Alamo<br />San Antonio, TX 78204"},"Location":{"Latitude":29.41150,"Longitude":-98.50094},"BikesAvailable":6,"DocksAvailable":1,"TotalDocks":7,"HoursOfOperation":"00:02 - 23:58","TimeZone":"(UTC-06:00) Central Time (US & Canada)","Status":"Active","IsEventBased":false},{"Id":2341,"PublicText":"","Name":"Flores @ Cesar Chavez","Address":{"Street":"524 S Flores","City":"San Antonio","State":"TX","ZipCode":"78204","Country":"United States","Html":"524 S Flores<br />San Antonio, TX 78204"},"Location":{"Latitude":29.41935,"Longitude":-98.49690},"BikesAvailable":3,"DocksAvailable":6,"TotalDocks":9,"HoursOfOperation":"00:02 - 23:58","TimeZone":"(UTC-06:00) Central Time (US & Canada)","Status":"Active","IsEventBased":false},{"Id":2342,"PublicText":"","Name":"115 E Crockett","Address":{"Street":"115 E Crockett Street","City":"San Antonio","State":"TX","ZipCode":"78205","Country":"United States","Html":"115 E Crockett Street<br />San Antonio, TX 78205"},"Location":{"Latitude":29.42509,"Longitude":-98.48825},"BikesAvailable":2,"DocksAvailable":6,"TotalDocks":9,"HoursOfOperation":"00:02 - 23:58","TimeZone":"(UTC-06:00) Central Time (US & Canada)","Status":"Active","IsEventBased":false},{"Id":2407,"PublicText":"","Name":"Rand Building","Address":{"Street":"200 N Main Street","City":"San Antonio","State":"TX","ZipCode":"78205","Country":"United States","Html":"200 N Main Street<br />San Antonio, TX 78205"},"Location":{"Latitude":29.42651,"Longitude":-98.49363},"BikesAvailable":9,"DocksAvailable":0,"TotalDocks":9,"HoursOfOperation":"00:02 - 23:58","TimeZone":"(UTC-06:00) Central Time (US & Canada)","Status":"Active","IsEventBased":false},{"Id":2413,"PublicText":"","Name":"USO","Address":{"Street":"278 W Market","City":"San Antonio","State":"TX","ZipCode":"78205","Country":"United States","Html":"278 W Market<br />San Antonio, TX 78205"},"Location":{"Latitude":29.42335,"Longitude":-98.48901},"BikesAvailable":7,"DocksAvailable":3,"TotalDocks":11,"HoursOfOperation":"00:02 - 23:58","TimeZone":"(UTC-06:00) Central Time (US & Canada)","Status":"Active","IsEventBased":false},{"Id":2414,"PublicText":"","Name":"Children's Museum","Address":{"Street":"305 E Houston","City":"San Antonio","State":"TX","ZipCode":"78205","Country":"United States","Html":"305 E Houston<br />San Antonio, TX 78205"},"Location":{"Latitude":29.42650,"Longitude":-98.48938},"BikesAvailable":5,"DocksAvailable":2,"TotalDocks":7,"HoursOfOperation":"00:02 - 23:58","TimeZone":"(UTC-06:00) Central Time (US & Canada)","Status":"Active","IsEventBased":false},{"Id":2415,"PublicText":"","Name":"506 S Main Ave #1","Address":{"Street":"506 S Main Ave","City":"San Antonio","State":"TX","ZipCode":"78205","Country":"United States","Html":"506 S Main Ave<br />San Antonio, TX 78205"},"Location":{"Latitude":29.41954,"Longitude":-98.49517},"BikesAvailable":13,"DocksAvailable":8,"TotalDocks":22,"HoursOfOperation":"00:02 - 23:58","TimeZone":"(UTC-06:00) Central Time (US & Canada)","Status":"Active","IsEventBased":false},{"Id":2416,"PublicText":"","Name":"506 S Main Ave #2","Address":{"Street":"506 S Main Ave","City":"San Antonio","State":"TX","ZipCode":"78205","Country":"United States","Html":"506 S Main Ave<br />San Antonio, TX 78205"},"Location":{"Latitude":29.41952,"Longitude":-98.49504},"BikesAvailable":12,"DocksAvailable":10,"TotalDocks":22,"HoursOfOperation":"00:02 - 23:58","TimeZone":"(UTC-06:00) Central Time (US & Canada)","Status":"Active","IsEventBased":false},{"Id":2417,"PublicText":"","Name":"Madison Square Park","Address":{"Street":"498 Richmond Avenue","City":"San Antonio","State":"TX","ZipCode":"78215","Country":"United States","Html":"498 Richmond Avenue<br />San Antonio, TX 78215"},"Location":{"Latitude":29.43397,"Longitude":-98.49206},"BikesAvailable":3,"DocksAvailable":4,"TotalDocks":7,"HoursOfOperation":"00:02 - 23:58","TimeZone":"(UTC-06:00) Central Time (US & Canada)","Status":"Active","IsEventBased":false},{"Id":2420,"PublicText":"","Name":"1800 Broadway","Address":{"Street":"1800 Broadway","City":"sa","State":"TX","ZipCode":"78205","Country":"United States","Html":"1800 Broadway<br />sa, TX 78205"},"Location":{"Latitude":29.44290,"Longitude":-98.47669},"BikesAvailable":3,"DocksAvailable":8,"TotalDocks":11,"HoursOfOperation":"00:02 - 23:58","TimeZone":"(UTC-06:00) Central Time (US & Canada)","Status":"Active","IsEventBased":false},{"Id":2421,"PublicText":"","Name":"Mission Park Pavilions","Address":{"Street":"123 Padre Drive","City":"San Antonio","State":"TX","ZipCode":"78205","Country":"United States","Html":"123 Padre Drive<br />San Antonio, TX 78205"},"Location":{"Latitude":29.36807,"Longitude":-98.47581},"BikesAvailable":6,"DocksAvailable":16,"TotalDocks":22,"HoursOfOperation":"00:02 - 23:58","TimeZone":"(UTC-06:00) Central Time (US & Canada)","Status":"Unavailable","IsEventBased":false},{"Id":2422,"PublicText":"","Name":"Mission Espada","Address":{"Street":"10040 Espada Drive","City":"San Antonio","State":"TX","ZipCode":"78205","Country":"United States","Html":"10040 Espada Drive<br />San Antonio, TX 78205"},"Location":{"Latitude":29.31931,"Longitude":-98.45110},"BikesAvailable":7,"DocksAvailable":15,"TotalDocks":22,"HoursOfOperation":"00:02 - 23:58","TimeZone":"(UTC-06:00) Central Time (US & Canada)","Status":"Active","IsEventBased":false},{"Id":2423,"PublicText":"","Name":"The Luxury","Address":{"Street":"103 E Jones Ave","City":"San Antonio","State":"TX","ZipCode":"78205","Country":"United States","Html":"103 E Jones Ave<br />San Antonio, TX 78205"},"Location":{"Latitude":29.43634,"Longitude":-98.48047},"BikesAvailable":6,"DocksAvailable":4,"TotalDocks":11,"HoursOfOperation":"00:02 - 23:58","TimeZone":"(UTC-06:00) Central Time (US & Canada)","Status":"Active","IsEventBased":false},{"Id":2451,"PublicText":"","Name":"Travis Park","Address":{"Street":"301 E Travis St,","City":"San Antonio","State":"TX","ZipCode":"78205","Country":"United States","Html":"301 E Travis St,<br />San Antonio, TX 78205"},"Location":{"Latitude":29.42757,"Longitude":-98.48975},"BikesAvailable":2,"DocksAvailable":2,"TotalDocks":7,"HoursOfOperation":"00:02 - 23:58","TimeZone":"(UTC-06:00) Central Time (US & Canada)","Status":"Active","IsEventBased":false},{"Id":2856,"PublicText":"","Name":"Big Tex","Address":{"Street":"116 Blue Star","City":"San Antonio","State":"TX","ZipCode":"78204","Country":"United States","Html":"116 Blue Star<br />San Antonio, TX 78204"},"Location":{"Latitude":29.40858,"Longitude":-98.49509},"BikesAvailable":7,"DocksAvailable":11,"TotalDocks":18,"HoursOfOperation":"00:02 - 23:58","TimeZone":"(UTC-06:00) Central Time (US & Canada)","Status":"Active","IsEventBased":false},{"Id":2857,"PublicText":"","Name":"Confluence Park","Address":{"Street":"300 W Mitchell St","City":"San Antonio","State":"TX","ZipCode":"78204","Country":"United States","Html":"300 W Mitchell St<br />San Antonio, TX 78204"},"Location":{"Latitude":29.39326,"Longitude":-98.49663},"BikesAvailable":9,"DocksAvailable":9,"TotalDocks":18,"HoursOfOperation":"00:02 - 23:58","TimeZone":"(UTC-06:00) Central Time (US & Canada)","Status":"Active","IsEventBased":false}]